"","station","Station Name","Reserve Code","Reserve Name","State","Latitude","Longitude","yr_start_wq","yr_end_wq","yr_start_nut","yr_end_nut","temp_median","spcond_median","sal_median","do_mgl_median","do_pct_median","ph_median","turb_median","temp_nPoints","spcond_nPoints","sal_nPoints","do_mgl_nPoints","do_pct_nPoints","ph_nPoints","turb_nPoints","temp_nMonths","spcond_nMonths","sal_nMonths","do_mgl_nMonths","do_pct_nMonths","ph_nMonths","turb_nMonths","chla_nMonths","nh4f_nMonths","no23_nMonths","po4f_nMonths","chla","nh4f","no23f","po4f"
"1","acebb","Big Bay","ACE","Ashepoo Combahee Edisto Basin","SC",32.4941,80.3241,2002,2015,2002,2014,21.9,47.78,31.1,6.2,84.525,7.8,19,342706,324398,324398,280781,296626,307775,345100,156,152,152,145,150,146,155,145,155,153,152,4.663,0.04745,0.01525,0.043125
"2","aceei","Edisto Island","ACE","Ashepoo Combahee Edisto Basin","SC",32.504,80.3247,2015,2022,2015,2022,22.05,44.74,28.9,6.1,80.7,7.7,17,272515,260624,260624,271318,272419,249262,247825,96,95,95,96,96,94,94,78,78,72,82,6.82,0.024425,0.024875,0.025625
"3","acefc","Fishing Creek","ACE","Ashepoo Combahee Edisto Basin","SC",32.63593,80.36556,2002,2022,2002,2022,21.25,11.1025,6.3,5.3,63.9,6.9,28,612647,601919,601919,560211,560214,537181,563414,240,240,240,235,235,229,235,220,237,223,232,8.0775,0.0515,0.03945,0.0716
"4","acemc","Mosquito Creek","ACE","Ashepoo Combahee Edisto Basin","SC",32.5558,80.438,2002,2022,2002,2022,21.6,28.31,17.4,5.9,73.3,7.4,24,589475,579229,579229,533877,534111,518378,553330,240,235,235,233,233,226,237,222,234,226,232,7.53175,0.043575,0.0355,0.053975
"5","acesp","St. Pierre","ACE","Ashepoo Combahee Edisto Basin","SC",32.528,80.36144,2002,2022,2002,2022,21.9,45.1475,29.25,6,81.15,7.7,17,601172,586247,586256,543518,546812,513352,574413,250,248,248,239,239,233,247,225,236,223,235,4.034,0.052175,0.01675,0.0385
"6","apacp","Cat Point","APA","Apalachicola Bay","FL",29.7021,84.8802,2002,2022,2002,2022,23.75,35.31,22.3,7,93.525,8,8,599913,556305,556305,546218,546199,516729,556902,248,245,245,246,246,240,246,226,226,224,225,6.15,0.0235,0.0431666666666667,0.002
"7","apadb","Dry Bar","APA","Apalachicola Bay","FL",29.6747,85.0583,2002,2022,2002,2022,23.7,33.7625,21.2,7.25,94.4,8,10,571639,531876,531876,542606,546099,506340,531480,237,234,234,236,236,229,235,218,223,222,221,8,0.014,0.038,0.002
"8","apaeb","East Bay Bottom","APA","Apalachicola Bay","FL",29.7858,84.8752,2002,2022,2002,2022,24.6,14.5325,8.425,7,85.5,7.6,13,577999,559455,559455,493783,493783,513598,527792,237,236,236,225,225,230,226,224,227,223,224,12.2544166666667,0.029,0.024,0.002
"9","apaes","East Bay Surface","APA","Apalachicola Bay","FL",29.7858,84.8752,2002,2022,2002,2022,24.55,12.425,7.1,6.7,83.75,7.5,8,586928,577226,577196,530020,531674,525541,553450,238,238,238,234,234,233,234,221,225,221,224,11.6666666666667,0.024,0.025,0.002
"10","apapc","Pilots Cove","APA","Apalachicola Bay","FL",29.601,85.0277,2017,2022,2002,2022,23.1,41.28,26.3,6.7,94,8.1,8,195471,195389,195388,191836,192597,189767,180585,71,71,71,71,71,71,70,208,210,209,208,5.4,0.00965,0.011,0.002
"11","cbmip","Iron Pot Landing","CBM","Chesapeake Bay","MD",38.796,76.7208,2003,2022,2003,2022,16.2,0.44,0.2,8.1,83.6,7.2,11,653601,633231,633231,625109,626906,570175,611831,235,232,232,232,232,228,233,213,213,219,212,2.935,0.0536666666666667,0.345333333333333,0.0494
"12","cbmmb","Monie Bay","CBM","Chesapeake Bay","MD",38.20855,75.804583,2020,2022,2020,2022,15.6,17.89,10.6,7.8,74.1,7,9,99880,95776,95776,99836,99872,86795,99075,35,35,35,35,35,33,35,35,24,24,24,7.83,0.0065,0.046375,0.01395
"13","cbmmc","Mataponi Creek","CBM","Chesapeake Bay","MD",38.7433,76.7074,2003,2022,2003,2022,17.25,0.23,0.1,6.7,69.8,6.6,18,527507,510071,510074,502673,505182,463774,490268,196,196,196,195,196,189,195,191,185,188,183,6.94,0.047,0.208833333333333,0.0155333333333333
"14","cbmoc","Otter Point Creek","CBM","Chesapeake Bay","MD",39.4507,76.2746,2003,2022,2003,2022,20.4,0.34,0.2,9.075,97.9,7.6,26,494087,489200,489178,475460,476210,446017,469621,183,183,183,182,182,178,181,190,184,189,183,27.405,0.038,0.565,0.00396666666666667
"15","cbmrr","Railroad","CBM","Chesapeake Bay","MD",38.7813,76.7137,2003,2022,2003,2022,15.7,0.35,0.2,8.1,83.2,7.1,20,673898,654509,654509,646329,646828,583776,642973,237,236,236,233,233,225,234,223,215,219,212,8.41,0.0545,0.5965,0.0166166666666667
"16","cbvcb","Claybank","CBV","Chesapeake Bay","VA",37.346665,76.611263,2002,2022,2002,2022,17.85,26.88,16.4,8,92.325,7.8,12,708930,689774,689753,649711,656104,680375,683735,250,249,249,244,244,250,249,248,242,233,222,8.5525,0.030025,0.0135,0.012425
"17","cbvgi","Goodwin Islands","CBV","Chesapeake Bay","VA",37.215796,76.392675,2002,2022,2002,2022,17,31.645,19.6,9.05,102.85,8.1,4,724062,667825,667837,640721,681963,703225,701285,252,252,252,250,250,249,252,248,229,235,234,4.6925,0.0323,0.00195,0.006
"18","cbvsh","Sweethall","CBV","Chesapeake Bay","VA",37.57138,76.88424,2002,2016,2002,2016,18.1,0.9,0.4,7.8,81.9,7.1,31,493882,493291,493291,456228,456356,473763,484756,177,177,177,176,176,176,177,176,176,165,166,5.8725,0.0306,0.1763,0.019
"19","cbvsp","Sweethall Pier","CBV","Chesapeake Bay","VA",37.571398,76.88399,2016,2022,2016,2022,18.05,1.175,0.6,8.1,81.15,7.1,29.5,215002,212447,212447,212992,212992,211761,213744,74,74,74,74,74,74,74,71,69,70,50,6.48,0.0413,0.18505,0.02435
"20","cbvtc","Taskinas Creek","CBV","Chesapeake Bay","VA",37.414986,76.71442,2002,2022,2002,2022,17.6,18.66,11.1,7.6,85.25,7.5,40,715577,704034,704032,677591,682481,700325,696139,251,251,251,250,250,251,251,247,246,236,223,10.76,0.045725,0.0418,0.03045
"21","delbl","Blackbird Landing","DEL","Delaware","DE",39.38876,75.636,2002,2022,2002,2022,16.3,2.275,1.2,8.2,82.3,7,39,608909,596643,596643,588294,589617,590875,585884,243,241,241,243,243,241,243,241,220,231,234,27.6333333333333,0.0443,0.385,0.01525
"22","delds","Division Street","DEL","Delaware","DE",39.1637,75.5191,2002,2022,2002,2022,16.4,0.18,0.1,8.4,85,6.8,10,619380,615654,615673,605069,605432,587456,592341,245,245,245,245,245,242,244,243,225,237,237,27.65,0.068,0.222,0.016
"23","delll","Lebanon Landing","DEL","Delaware","DE",39.1144,75.4992,2002,2022,2002,2022,16.1,3.455,1.8,8,77.4,7,33,624090,621565,621565,618305,619456,591728,603006,251,251,251,250,250,247,249,242,234,243,236,17.19,0.106883333333333,0.888,0.024
"24","delsl","Scotton Landing","DEL","Delaware","DE",39.08498,75.46058,2002,2022,2002,2022,15.4,16.2775,9.6,6.8,71.6,7.1,37,626254,620649,620649,616565,617482,605625,611775,251,250,250,251,251,250,250,244,230,239,243,11.135,0.144591666666667,0.603,0.043
"25","elkap","Azevedo Pond","ELK","Elkhorn Slough","CA",36.8457,121.7538,2002,2022,2002,2022,16.8,50.495,33.15,6.15,75.625,7.9,5,614098,502970,503582,535944,548305,508986,535651,248,228,228,232,236,219,232,226,217,222,234,4.015,0.0577,0.0223333333333333,0.0601
"26","elknm","North Marsh","ELK","Elkhorn Slough","CA",36.8346,121.7384,2002,2022,2002,2022,17.2,50.18,32.9,6.3,75.625,8.1,6,613004,490766,492053,560113,575776,484869,530547,249,231,232,241,244,207,238,225,217,230,233,5.85333333333333,0.07065,0.05635,0.045
"27","elksm","South Marsh","ELK","Elkhorn Slough","CA",36.8179,121.7394,2002,2022,2002,2022,16.2,49.95,32.7,6.9,85.9,8,6,630368,507912,509651,582182,595768,539952,575934,250,227,227,242,243,228,243,226,218,231,234,3.525,0.0664083333333333,0.0821333333333333,0.0443166666666667
"28","elkvm","Vierra Mouth","ELK","Elkhorn Slough","CA",36.8111,121.7792,2002,2022,2002,2022,13.9,49.935,32.7,7.9,92.7,8,4,615126,458255,460455,535695,579893,462479,577131,248,214,216,227,239,204,238,217,213,223,223,2.44,0.059,0.1382,0.0377
"29","gndbc","Bayou Cumbest","GND","Grand Bay","MS",30.3836,88.4364,2004,2022,2005,2022,24,27.7675,17.05,6.2,79.45,7.3,8,590989,562958,563582,512502,513877,525220,520219,222,222,222,213,213,213,214,201,169,165,189,7.38,0.0105,0.005,0.005
"30","gndbh","Bayou Heron","GND","Grand Bay","MS",30.4178,88.4054,2004,2022,2005,2022,23.2,29.005,18,3.7,47,7,7,615490,594435,594435,583306,584303,562697,542986,228,225,225,227,227,219,224,192,164,160,183,5.8625,0.032,0.005,0.005
"31","gndbl","Bangs Lake","GND","Grand Bay","MS",30.3571,88.4629,2004,2022,2005,2022,23.5,33.43,20.9,7,91.6,7.7,10,593885,542589,542589,513635,532557,517724,513796,225,222,222,220,222,217,216,203,172,164,188,6.635,0.005,0.005,0.005
"32","gndpc","Point Aux Chenes Bay","GND","Grand Bay","MS",30.3486,88.4185,2005,2022,2005,2022,23.7,35.96,22.6,7.4,96.875,8.1,12,524946,434447,434447,428941,469693,459188,445986,191,189,189,187,188,186,189,193,165,156,177,6.785,0.005,0.005,0.005
"33","grbgb","Great Bay","GRB","Great Bay","NH",43.0722,70.8694,2002,2022,2002,2022,15.05,39.24,24.9,8.5,98.75,7.9,4,290113,279747,279755,273412,279053,284967,279474,134,133,133,131,132,134,133,129,174,170,172,4.67333333333333,0.02525,0.052,0.0221666666666667
"34","grblr","Lamprey River","GRB","Great Bay","NH",43.08,70.9344,2002,2022,2002,2022,17.3,20.55,12.3,8.6,93.25,7.3,5,402184,387538,387538,377508,387555,382173,381050,171,167,167,163,166,169,165,127,172,166,170,2.15,0.03865,0.108,0.009
"35","grbor","Oyster River","GRB","Great Bay","NH",43.134,70.911,2002,2022,2004,2022,16.3,35.06,21.95,7.9,91.9,7.7,8,416922,400969,400974,386893,392879,384343,382174,173,170,170,171,172,167,168,106,153,149,153,4.5525,0.057,0.108,0.0382
"36","grbsq","Squamscott River","GRB","Great Bay","NH",43.052403,70.911811,2002,2022,2002,2022,16.65,31.26,19.325,7.9,93.1,7.7,13,408135,398795,398795,391416,396098,357594,370888,172,172,172,168,169,161,166,121,169,163,166,5.5395,0.1345,0.135,0.036
"37","gtmfm","Fort Matanzas","GTM","Guana Tolomato Matanzas","FL",29.737041,81.245953,2002,2022,2002,2022,24,52.175,34.3,6.3,91.175,8,7,629204,593911,593911,601474,609042,587331,594698,252,251,251,250,250,249,248,244,241,246,246,3.475,0.032,0.009,0.014
"38","gtmpc","Pellicer Creek","GTM","Guana Tolomato Matanzas","FL",29.667071,81.257403,2002,2022,2002,2022,24.55,26.04,15.9,5.3,69.9,7.4,8.5,633291,625400,625400,617648,617648,607831,602895,250,250,250,250,250,250,248,238,241,239,241,6.8,0.0315,0.00855,0.033
"39","gtmpi","Pine Island","GTM","Guana Tolomato Matanzas","FL",30.050857,81.367465,2002,2022,2002,2022,24.3,44.0775,28.45,5.8,82.2,7.6,10.5,629901,579276,579276,574030,582958,576317,552150,250,250,250,248,248,250,248,243,238,233,244,4.75,0.03875,0.0103,0.02275
"40","gtmss","San Sebastian","GTM","Guana Tolomato Matanzas","FL",29.868851,81.307428,2002,2022,2002,2022,24.1,51.6,33.9,6,87.8,7.9,9,613131,577094,577094,590444,597027,562601,570152,247,247,247,245,245,245,245,242,238,242,245,4.275,0.03475,0.015775,0.0165
"41","heekk","Kahookele","HEE","Heeia","HI",21.43582,157.80524,2020,2022,2020,2022,25.8,51.81,34,6.55,97.5,8.1,2,78960,76734,76734,73815,73815,76463,76953,27,27,27,27,27,26,27,26,26,26,26,0.72375,0.01305,0.008025,0.0039
"42","heer9","Reef 9","HEE","Heeia","HI",21.44628,157.80183,2020,2022,2020,2022,25.8,53.02,34.9,6.5,97.25,8.1,2,100980,98448,98448,97744,100272,98292,100961,35,34,34,34,35,34,35,33,34,34,34,0.5975,0.002,0.00475,0.003675
"43","heew2","Wai 2","HEE","Heeia","HI",21.43831,157.81093,2019,2022,2019,2022,24.3,0.26,0.1,2.4,28.7,6.9,14,114208,114196,114196,103169,103168,111312,107120,39,39,39,39,39,39,39,44,47,47,47,0.975,0.00925,0.0013,0.01245
"44","hudbm","Bear Mountain","HUD","Hudson River","NY",41.3143389,73.985225,2020,2022,2020,2022,13.4,1.37,0.7,9.3,91.5,7.7,15,100717,96272,96274,100455,100455,98031,95030,35,35,35,35,35,34,34,21,22,15,20,1.99,0.0285,1.74,0.037
"45","hudsc","Stony Creek","HUD","Hudson River","NY",42.0463,73.9108,2002,2021,2002,2021,15.75,0.38,0.2,8.9,90.4,7.9,4,426463,418232,418607,421336,421561,393903,396908,182,180,180,182,182,176,177,129,157,160,165,0.975,0.031,0.41,0.0345
"46","hudsk","Saw Kill","HUD","Hudson River","NY",42.0171722,73.9149611,2002,2019,2002,2019,15.2,0.42,0.2,10,99.1,8.2,2,379724,377843,377843,355211,355215,352223,346636,164,164,164,159,159,160,155,115,146,146,148,1.01,0.01,0.8105,0.0055
"47","hudtn","Tivoli North Bay","HUD","Hudson River","NY",42.0365457,73.925324,2002,2022,2002,2022,16.9,0.24,0.1,8.55,88,7.5,11,437323,428946,428950,428737,428738,404352,417057,184,181,181,182,182,178,181,131,164,157,165,3,0.035,0.314,0.0096
"48","hudts","Tivoli South Bay","HUD","Hudson River","NY",42.0270378,73.9259569,2002,2022,2002,2022,16.6,0.24,0.1,8.7,89.4,7.6,9,435049,429158,429152,428790,428801,418606,409506,183,182,182,183,183,182,178,133,164,157,163,2.755,0.03,0.32,0.0098
"49","jacb6","Buoy 126","JAC","Jacques Cousteau","NJ",39.5079,74.3385,2002,2022,2002,2022,15.7,45.705,29.5,8.25,97.9,8,9,519180,461332,460974,421969,434250,459529,420996,210,199,199,182,185,194,185,171,168,168,164,4.595,0.0155,0.005,0.0235
"50","jacb9","Buoy 139","JAC","Jacques Cousteau","NJ",39.4979417,74.3811306,2002,2022,2002,2022,16.7,43.63,27.9,8,96.1,7.9,7,501840,479546,479546,458093,461771,475019,478695,209,205,205,194,195,197,197,167,165,165,163,5.305,0.015,0.007,0.02415
"51","jacba","Lower Bank","JAC","Jacques Cousteau","NJ",39.5937,74.5515,2002,2022,2002,2022,16.1,2.99,1.6,8.4,85.35,6.3,13,520032,517019,517019,472142,474261,492308,479400,209,208,208,195,196,202,191,171,165,165,165,2.595,0.014,0.1205,0.006
"52","jacne","Chestnut Neck","JAC","Jacques Cousteau","NJ",39.5479,74.4608,2002,2022,2002,2022,15.5,24.72,14.85,8.4,88.8,7.3,6,590411,581046,581703,541173,544116,531099,552179,237,236,236,229,229,222,227,168,167,165,161,4.0625,0.04,0.05,0.018
"53","job09","Station 9","JOB","Jobos Bay","PR",17.9430556,66.2385833,2002,2022,2002,2019,29.2,56.01,37.1,4.3,67.4,7.7,2,596475,543434,543433,568343,575784,490578,499184,249,243,243,248,248,226,234,120,178,161,180,3.1375,0.061325,0.00275,0.003575
"54","job10","Station 10","JOB","Jobos Bay","PR",17.938611,66.257736,2002,2022,2002,2019,29.3,55.5775,36.8,5.2,82.35,7.8,1,577288,502434,502433,528272,541004,517902,403348,240,236,236,235,236,231,204,121,178,163,181,1.46,0.061875,0.0046,0.0013
"55","job19","Station 19","JOB","Jobos Bay","PR",17.942914,66.228825,2002,2022,2002,2019,28.8,54.265,35.8,6.3,98.775,8.1,1,566387,504444,504443,536183,545974,513004,438163,234,232,232,232,232,226,201,122,178,167,183,0.57,0.041525,0.00235,0.00115
"56","job20","Station 20","JOB","Jobos Bay","PR",17.930317,66.211472,2002,2022,2002,2019,28.6,54.14,35.7,6.2,96.5,8.1,2,605516,530614,530614,532115,547314,510008,506230,243,237,237,238,239,231,216,124,178,166,183,0.32,0.0462,0.00275,0.00135
"57","kachd","Homer Dolphin Deep","KAC","Kachemak Bay","AK",59.60201,151.40878,2003,2022,2002,2022,6.2,48.14,30.8,9.9,95.35,8,2,637668,610211,610211,572084,581832,576772,589996,232,229,229,222,222,226,227,236,200,203,197,0.965,0.0206916666666667,0.11385,0.0307
"58","kachs","Homer Dolphin Surface","KAC","Kachemak Bay","AK",59.60201,151.40878,2004,2011,2002,2022,8.6,45.515,29.3,10.8,111.4,8.1,3,170878,166773,166773,145848,147463,158312,128003,70,70,70,65,65,67,60,237,205,206,206,1.37,0.014,0.0932666666666667,0.024825
"59","kacsd","Seldovia Deep","KAC","Kachemak Bay","AK",59.44099,151.72096,2004,2022,2002,2022,6.75,48.625,31.3,9.8,96.3,8,1,644969,597002,592185,560024,573866,575840,556079,228,220,219,213,213,219,217,232,208,210,209,1.13,0.01595,0.133275,0.029
"60","kacss","Seldovia Surface","KAC","Kachemak Bay","AK",59.44099,151.72096,2004,2022,2002,2022,6.55,47.855,30.7,10.3,101.7,8,1,638845,605122,605197,594282,604032,595976,553727,228,224,224,220,221,220,220,237,208,212,211,1.45,0.017725,0.127125,0.0267
"61","lksba","Barker's Island","LKS","Lake Superior","WI",46.721772,92.06352,2012,2022,2012,2022,15.4,0.195,0.1,9,86.75,7.6,8,222020,221770,221770,211876,211876,211865,214462,86,86,86,84,84,84,85,61,32,47,44,9.8,0.046,0.2735,0.0065
"62","lksbl","Blatnik Bridge","LKS","Lake Superior","WI",46.748649,92.10027,2012,2022,2012,2022,16.6,0.19,0.1,8.9,87.85,7.7,8,182970,172259,172259,177121,183735,173708,182824,72,71,71,71,72,70,72,60,29,44,41,4.72,0.1255,0.21425,0.007
"63","lksol","Oliver Bridge","LKS","Lake Superior","WI",46.65685,92.20166,2012,2022,2012,2022,18.4,0.19,0.1,8.7,92.45,7.7,7,190862,189904,189904,185872,186596,180796,186762,73,73,73,72,72,71,73,60,35,43,38,3.85,0.02,0.071,0.005925
"64","lkspo","Pokegama Bay","LKS","Lake Superior","WI",46.67236,92.135614,2013,2022,2013,2022,17.1,0.22,0.1,6.2,64.2,7.4,55,159750,154695,154696,158502,158502,153617,158037,62,61,61,61,61,60,61,52,30,38,38,4.6375,0.022,0.02325,0.0175
"65","marab","Aransas Bay","MAR","Mission Aransas","TX",27.9798,97.0287,2007,2022,2007,2022,24.3,45.39,29.4,7,97.2,8.2,9,480701,443410,443411,444445,452075,364604,448648,171,169,169,168,168,150,171,183,104,101,101,5.6,0.003075,0.00545,0.01745
"66","marce","Copano Bay East","MAR","Mission Aransas","TX",28.1323,97.0344,2007,2022,2007,2022,25.1,37.3475,23.65,7.1,96.5,8.1,11,488266,439481,439196,452203,462793,350258,455371,178,174,174,175,176,149,174,181,106,103,101,5.95,0.0041,0.00545,0.0406
"67","marcw","Copano Bay West","MAR","Mission Aransas","TX",28.0841,97.2009,2007,2022,2007,2022,24.2,32.82,20.45,7.2,97,8.1,19,510205,472620,472620,479622,485149,399408,487604,185,184,184,185,185,167,184,176,104,99,101,6.1,0.00295,0.00545,0.04125
"68","marmb","Mesquite Bay","MAR","Mission Aransas","TX",28.1384,96.8285,2008,2022,2008,2022,24.4,40.85,26.1,7.1,97,8.2,17,501469,443105,443103,449126,463527,335337,449997,180,179,179,175,175,149,175,177,101,98,101,6.15,0.00275,0.00545,0.023
"69","marsc","Ship Channel","MAR","Mission Aransas","TX",27.8383,97.0503,2007,2017,2007,2022,24.55,48.855,31.85,6.7,96.3,8.2,7,334454,302717,302717,311318,318856,207045,301179,120,118,118,119,119,92,116,182,103,101,103,4.1,0.00395,0.00545,0.00695
"70","narnc","Nag Creek","NAR","Narragansett Bay","RI",41.62485,71.324283,2002,2022,2002,2022,15.4,44.27,28.4,7.1,84.1,7.5,2,533019,492990,492314,500415,510553,513946,502736,210,206,205,205,207,208,209,168,144,143,143,1.675,0.02035,0.003,0.0295
"71","narpc","Potters Cove","NAR","Narragansett Bay","RI",41.64055,71.340881,2002,2022,2002,2022,11.9,45.22,28.9,8.7,95.9,7.9,1,649746,625189,624538,621789,624527,617846,599184,251,249,249,251,251,247,244,200,161,159,163,2.5175,0.0145,0.004,0.0255
"72","nartb","T-Wharf Bottom","NAR","Narragansett Bay","RI",41.578361,71.321125,2002,2022,2002,2022,11.4,47.405,30.5,8.5,93,8,1,649324,601061,601061,608088,610922,579501,576031,245,240,240,245,245,235,239,200,156,158,160,1.8765,0.01195,0.002975,0.020425
"73","narts","T-Wharf Surface","NAR","Narragansett Bay","RI",41.578361,71.321125,2002,2022,2002,2022,12.2,46.73,30.1,8.55,96.3,8,1,648795,610937,610954,622470,622416,619824,537957,244,239,239,242,242,241,235,195,159,158,160,1.785,0.00815,0.00275,0.01865
"74","niwcb","Clambank","NIW","North Inlet-Winyah Bay","SC",33.3338636,79.1930411,2002,2022,2002,2022,20.8,51.85,34.1,6.2,83.9,7.7,10,647075,609107,609122,627248,636054,601236,620653,251,250,250,251,251,244,250,231,237,240,240,4.885,0.050075,0.007,0.0132208333333333
"75","niwdc","Debidue Creek","NIW","North Inlet-Winyah Bay","SC",33.3601486,79.1674572,2002,2022,2002,2022,21.05,51.25,33.6,6.35,85.45,7.7,9,639918,603939,603614,609252,618085,605781,602995,250,249,249,250,250,248,250,217,225,224,227,5.4875,0.0467,0.00603333333333333,0.0125
"76","niwol","Oyster Landing","NIW","North Inlet-Winyah Bay","SC",33.3493511,79.1888819,2002,2022,2002,2022,21.4,51.785,34,5.9,79.525,7.6,11,647316,637896,637896,632339,636001,629750,630583,252,252,252,252,252,251,252,232,238,240,242,7.2375,0.051625,0.0057875,0.0151125
"77","niwta","Thousand Acre","NIW","North Inlet-Winyah Bay","SC",33.2991461,79.2560564,2002,2022,2002,2022,20.6,11.63,6.6,6.8,77.25,7.1,30,638423,631304,631304,626412,627896,605425,618106,251,251,251,250,250,247,249,227,237,236,237,7.915,0.09505,0.1351375,0.036075
"78","nocec","East Cribbing","NOC","North Carolina","NC",33.9399,77.9411,2002,2021,2002,2022,20.4,35.4275,22.35,7.4,92.55,7.8,10,528126,425615,425615,445348,456042,416077,431058,231,210,210,212,216,210,215,213,216,216,219,7.13,0.0491,0.09075,0.0158
"79","noclc","Loosin Creek","NOC","North Carolina","NC",34.1722,77.8328,2002,2022,2002,2022,20.6,50.585,33.05,7.2,94.9,8,5,601982,470314,473095,532157,550160,454972,481324,247,226,226,236,240,213,224,218,221,222,223,2.465,0.036,0.00235,0.003
"80","nocrc","Research Creek","NOC","North Carolina","NC",34.156,77.8499,2002,2022,2004,2022,20.7,48.045,31.275,7,90.9,7.9,6,587945,481335,481336,486843,498736,452276,489055,241,222,222,225,227,210,230,199,202,201,203,3.5,0.03795,0.00235,0.0033
"81","noczb","Zeke's Basin","NOC","North Carolina","NC",33.9547,77.935,2002,2022,2002,2022,20.75,35.5,22.6,6.7,85.9,7.7,15,608741,510907,513683,536757,544304,460864,496444,246,231,231,235,235,213,225,208,216,216,217,9.26,0.0533,0.0653,0.0262
"82","owcbr","Berlin Road","OWC","Old Woman Creek","OH",41.348889,82.512222,2002,2022,2002,2022,14.9,0.65,0.3,8.1,84.7,7.8,10,500632,479148,479149,470233,486838,489564,462014,191,188,188,188,191,190,182,200,193,198,194,1.77,0.03,2.40525,0.0224375
"83","owcdr","Darrow Road","OWC","Old Woman Creek","OH",41.365,82.504722,2007,2022,2007,2022,15.7,0.63,0.3,6.7,68.8,7.6,17,387832,383519,382522,376656,375487,371945,378738,143,143,143,143,143,142,142,144,143,138,143,3.665,0.036,1.922,0.016
"84","owcol","Lower Estuary","OWC","Old Woman Creek","OH",41.381667,82.513889,2002,2022,2002,2022,16.8,0.5,0.2,7.85,82.5,7.7,30,522643,507750,507755,494751,503304,515201,502424,195,193,193,194,194,195,195,197,195,194,190,17.355,0.0735,1.231,0.00925
"85","owcsu","State Route 2","OWC","Old Woman Creek","OH",41.3672,82.5072,2002,2007,2002,2007,15.3,0.67,0.3,7.4,81.95,7.8,17.5,137285,136142,136142,129898,130295,135937,128336,53,53,53,53,53,53,52,55,55,55,55,5.805,0.054,3.098,0.0194
"86","owcwm","State Route 6","OWC","Old Woman Creek","OH",41.3825,82.514444,2002,2022,2002,2022,16.7,0.48,0.2,7.8,81.2,7.7,30,529387,522271,519508,508115,514126,517311,506322,197,194,194,194,197,197,195,199,199,198,198,15.5525,0.0808333333333333,1.08725,0.00895
"87","pdbbp","Ploeg Channel","PDB","Padilla Bay","WA",48.556322,122.530894,2002,2022,2002,2022,10.9,44.93,28.9,9.5,102.2,8,2,633873,596818,596810,542384,557399,595982,587372,251,245,245,229,233,244,246,244,203,207,205,1.70916666666667,0.01745,0.1218,0.0511
"88","pdbby","Bayview Channel","PDB","Padilla Bay","WA",48.496139,122.502114,2002,2022,2002,2022,10.25,45.395,29.275,8.7,93,7.9,2,630355,616962,616961,584868,587271,590530,594117,250,250,250,245,245,244,247,242,199,200,198,1.9075,0.015725,0.204625,0.057125
"89","pdbgd","Gong Deep","PDB","Padilla Bay","WA",48.5575,122.5725,2016,2022,2007,2022,9.7,46.31,29.8,7.1,76.15,7.8,2,208751,198804,198804,192530,199184,184335,193927,73,71,71,69,70,67,68,174,141,147,141,1.41125,0.018,0.315075,0.06425
"90","pdbgs","Gong Surface","PDB","Padilla Bay","WA",48.5575,122.5725,2003,2022,2003,2022,10.65,45.54,29.3,8.7,92.6,7.9,1,477036,427511,427511,459510,463003,444500,422850,186,176,176,179,179,179,176,220,187,192,185,1.78416666666667,0.0115,0.246966666666667,0.05565
"91","pdbje","Joe Leary Estuary","PDB","Padilla Bay","WA",48.518914,122.474928,2009,2022,2009,2022,11.9,41.115,26.1,8.2,82.95,7.6,12.5,459930,456055,456055,439537,439539,456589,439680,162,162,162,159,159,162,160,135,109,110,103,2.9,0.43885,0.6796,0.0196
"92","pdbjl","Joe Leary Slough","PDB","Padilla Bay","WA",48.518264,122.474189,2002,2009,2002,2009,11.05,3.7325,2,5.9,53.85,6.9,27,166384,165031,165031,158571,158569,161233,143609,86,86,86,86,86,86,83,86,86,86,87,2.77875,0.445275,0.8056125,0.017725
"93","rkbfb","Fakahatchee Bay","RKB","Rookery Bay","FL",25.8922,81.477,2002,2022,2002,2022,27.1,45.98,29.9,5.2,77.15,7.8,8,613049,597231,597231,499006,503295,566480,576870,250,248,248,210,210,244,246,238,183,221,238,4.6525,0.027,0.0055,0.01325
"94","rkbfu","Faka Union Bay","RKB","Rookery Bay","FL",25.9005,81.5159,2002,2022,2002,2022,26.95,42.2375,27.1,5,73.7,7.7,7,623950,613515,613516,532878,533138,588264,554163,250,250,250,213,213,246,241,241,190,215,243,2.6,0.03175,0.0165,0.0105
"95","rkblh","Lower Henderson Creek","RKB","Rookery Bay","FL",26.02749,81.73361,2002,2022,2002,2022,27.1,50.53,33.1,5.4,81.7,7.9,8,617203,585827,585827,499398,514176,558891,539091,249,247,247,209,211,242,242,237,188,227,241,4,0.022,0.0065,0.008
"96","rkbmb","Middle Blackwater River","RKB","Rookery Bay","FL",25.9343,81.5946,2002,2022,2002,2022,26.9,50.5925,33.2,4.4,66.6,7.7,10,622473,599158,599158,517692,524363,588482,581556,247,248,248,211,211,245,247,243,191,216,241,3.445,0.038,0.015,0.025
"97","rkbpb","Pumpkin Bay","RKB","Rookery Bay","FL",25.9141,81.5404,2016,2022,2012,2022,27.05,46.495,30.15,4.9,75.25,7.8,10,231855,228226,228226,229433,230321,222175,223575,82,82,82,82,82,81,82,116,67,95,117,3.825,0.0265,0.006,0.02
"98","sapca","Cabretta Creek","SAP","Sapelo Island","GA",31.4437,81.2399,2004,2022,2004,2022,22.5,48.6475,31.7,6.5,88.25,7.8,16,550978,519244,520387,501809,512444,448573,499693,217,216,216,214,215,200,212,169,163,173,173,8.66,0.04695,0.00275,0.05955
"99","sapdc","Dean Creek","SAP","Sapelo Island","GA",31.3896,81.2789,2004,2022,2004,2022,22.6,42.4,27.1,4.9,65.925,7.4,16,557365,550163,550225,526151,528649,470882,536315,220,220,220,216,216,209,220,168,162,172,172,4.0225,0.238675,0.0175,0.23055
"100","sapfd","Flume Dock","SAP","Sapelo Island","GA",31.4828,81.2675,2002,2004,2002,2004,24.9,37.01,23.4,5.2,79.15,7.2,8.5,36233,31955,31955,22995,22995,30942,19705,27,26,26,23,23,24,22,27,26,29,29,7.25,0.02675,0.006,0.0396666666666667
"101","saphd","Hunt Dock","SAP","Sapelo Island","GA",31.4786,81.2731,2002,2022,2002,2022,22.8,40.02,25.45,5.3,69.1,7.4,7,572968,532673,534058,515018,519627,481116,465388,240,239,240,231,232,228,215,195,188,202,201,4.93333333333333,0.0356,0.00275,0.0324
"102","sapld","Lower Duplin","SAP","Sapelo Island","GA",31.417942,81.296047,2002,2022,2002,2022,21.95,42.0575,26.975,6.1,83.2,7.7,25,599500,573991,573991,558135,560956,522579,534575,246,248,248,235,235,234,236,196,191,203,205,9.4875,0.037,0.0145,0.0293333333333333
"103","sapml","Marsh Landing","SAP","Sapelo Island","GA",31.4177,81.2961,2002,2004,2002,2004,22.6,40.905,26.175,6.8,85.3,7.7,18,29914,29357,29357,25113,24177,26041,17210,24,24,24,23,23,22,15,29,28,32,32,8.46666666666667,0.03135,0.0336666666666667,0.0351
"104","sfbcc","China Camp","SFB","San Francisco Bay","CA",38.0012,122.4604,2005,2022,2006,2022,16.35,37.03,23.5,7.8,91.35,7.8,43.5,573891,520464,520388,540878,540046,515987,517899,210,207,207,206,206,204,208,160,157,42,96,6.2,0.04745,0.229825,0.093075
"105","sfbfm","First Mallard","SFB","San Francisco Bay","CA",38.1949,122.0328,2008,2022,2008,2022,17.35,7.2,4,7,74.05,7.6,40,488563,458480,458480,466904,474171,449777,468094,172,167,167,172,172,166,172,153,140,26,74,4.1,0.0734,1.095975,0.216125
"106","sfbgc","Gallinas Creek","SFB","San Francisco Bay","CA",38.0159,122.5085,2006,2022,2006,2022,16.9,34.65,21.8,7.1,79.5,7.7,39,507543,466057,466057,493572,495327,434894,484184,179,177,177,179,179,169,179,166,161,41,97,5.2,0.07235,0.1414,0.1209
"107","sfbsm","Second Mallard","SFB","San Francisco Bay","CA",38.1841,122.0136,2008,2022,2008,2022,17.2,7.2,4,7.5,79.4,7.5,35,489077,480347,480347,483068,483068,465796,478461,171,170,170,171,171,168,170,146,145,30,76,3.725,0.05315,0.483575,0.0726375
"108","sosch","Charleston Bridge","SOS","South Slough","OR",43.3377,124.320533,2002,2022,2002,2022,12,47.115,30.55,8.8,97.4,8,3,599395,561542,561542,516058,532608,526702,493837,242,238,238,231,232,226,218,184,148,138,148,2.145,0.0313333333333333,0.122358333333333,0.0318833333333333
"109","sosva","Valino Island","SOS","South Slough","OR",43.317217,124.321633,2002,2022,2002,2022,12.6,44.25,28.6,8.6,94.9,7.9,4,622461,577609,581674,553419,567727,586599,546623,249,244,245,241,243,243,243,182,148,138,148,2.625,0.03398,0.120733333333333,0.0261666666666667
"110","soswi","Winchester Arm","SOS","South Slough","OR",43.282417,124.320317,2002,2022,2002,2022,12.45,24.2425,14.775,8.55,86.8,7.3,7,629281,607590,607576,560808,571121,575192,547029,250,248,248,238,239,241,240,183,148,138,148,1.07333333333333,0.0252666666666667,0.209633333333333,0.00824166666666667
"111","tjrbr","Boca Rio","TJR","Tijuana River","CA",32.5593611,117.1289722,2004,2022,2004,2022,17.3,50.74,33.3,6.8,85.25,8,3,570085,526077,526079,504012,503715,496411,525671,215,204,204,206,206,203,209,188,194,188,196,1.07333333333333,0.10375,0.0208,0.0988
"112","tjrmm","Model Marsh","TJR","Tijuana River","CA",32.5478,117.123,2002,2008,2002,2008,18.05,53.8,35.6,5.4,70.975,7.7,10,102966,100314,100314,99662,99660,91306,78261,70,69,69,70,70,65,60,50,57,56,58,1.325,0.167,0.02425,0.067
"113","tjros","Oneonta Slough","TJR","Tijuana River","CA",32.5683333,117.1312778,2002,2022,2002,2022,18.8,50.82,33.4,5.2,66.175,7.7,5,624944,585504,585504,569662,569512,540503,559121,248,244,244,236,236,230,234,185,210,205,213,1.735,0.1139,0.025,0.1615
"114","tjrpe","Pond Eleven","TJR","Tijuana River","CA",32.60098,117.11624,2008,2010,2008,2011,21.3,69.9225,47.9,6.95,101.025,8.3,4.5,73853,71181,71181,67830,67830,62560,72400,26,26,26,26,26,24,26,41,38,38,42,18.74,0.0108333333333333,0.01,0.022
"115","tjrpr","Pond Eleven Restored","TJR","Tijuana River","CA",32.5960833,117.1181944,2012,2022,2012,2022,21.1,53.68,35.5,6.25,85.075,8,9,372746,345679,345679,364658,364658,359429,305234,131,131,131,130,130,129,126,108,119,116,119,2.335,0.0263,0.009725,0.03
"116","tjrsb","South Bay","TJR","Tijuana River","CA",32.601,117.1158333,2008,2022,2008,2022,21,53.54,35.4,6.5,87.9,8,7,512002,478505,478505,499214,499496,407478,475148,180,178,178,178,178,159,179,153,161,160,167,2.125,0.02215,0.010475,0.0403333333333333
"117","tjrtl","Tidal Linkage","TJR","Tijuana River","CA",32.5744,117.1272,2002,2007,2002,2007,20.15,48.0425,31.2,4.15,57.825,7.6,8,79218,63716,62584,53594,54152,74528,55215,54,44,43,42,42,53,43,42,48,48,50,2.45,0.1225,0.09375,0.1985
"118","welht","Head of Tide","WEL","Wells","ME",43.298347,70.587094,2002,2022,2002,2022,12.4,0.2,0.1,10.5,100.6,6.8,2,443913,442085,442085,424657,424656,423705,419455,193,193,193,192,192,189,188,123,144,142,144,0.2,0.0028,0.11125,8e-04
"119","welin","Inlet","WEL","Wells","ME",43.320089,70.563442,2002,2022,2002,2022,9.3,48.08,31.1,9.2,97,7.9,3,609712,584673,582501,521452,526265,567092,548641,245,245,245,213,213,240,227,164,194,191,199,0.9,0.027,0.034,0.0125
"120","wellm","Little River Mouth","WEL","Wells","ME",43.340153,70.540603,2002,2022,2002,2022,12.7,33.24,20.7,8.95,98.45,7.8,3,424421,424410,424410,375617,375549,376258,387143,179,179,179,170,170,167,173,121,133,134,145,0.7,0.018,0.066,0.003
"121","welsm","Skinner Mill","WEL","Wells","ME",43.344711,70.549217,2004,2022,2004,2022,13.5,5.75,3.1,9.2,95.7,7.2,4,414802,413913,413913,388998,389055,377058,387008,165,165,165,159,159,159,162,112,128,128,133,0.4,0.0028,0.10555,9e-04
"122","wkbfr","Fish River","WKB","Weeks Bay","AL",30.4162,87.8228,2002,2022,2002,2022,23.95,11.97,6.8,7.05,83,7.2,12,425717,415259,415259,397941,399002,324239,403479,194,192,192,190,190,161,189,213,195,221,213,18.2,0.049,0.49,0.001
"123","wkbmb","Middle Bay","WKB","Weeks Bay","AL",30.3961,87.8335,2003,2022,2002,2022,24.3,15.99,9.4,7.8,94.5,7.9,15,432403,401254,400865,412482,412917,367141,416788,180,175,175,179,179,164,179,216,194,223,213,30.4816666666667,0.0223333333333333,0.142666666666667,0.001
"124","wkbmr","Magnolia River","WKB","Weeks Bay","AL",30.39,87.8177,2003,2022,2002,2022,24.9,15.495,9,7.3,91.85,7.7,17,409495,381552,381552,389081,389070,319508,391343,175,169,169,174,174,149,173,214,192,222,213,28.5133333333333,0.0343333333333333,0.3405,0.001
"125","wkbwb","Weeks Bay","WKB","Weeks Bay","AL",30.3808,87.832,2002,2022,2002,2022,24.1,18.13,10.8,7.75,96.7,7.9,15,446284,413418,413418,408389,408950,356940,411560,192,189,189,186,187,170,186,215,192,219,213,29.9033333333333,0.027,0.0703333333333333,0.001
"126","wqbcr","Childs River","WQB","Waquoit Bay","MA",41.5798,70.5309,2002,2021,2002,2022,16.6,43.355,27.7,7.8,93.85,7.8,2,496785,486904,487048,480864,480394,419326,457641,205,203,203,204,204,186,203,170,163,114,166,14.025,0.022,0.08175,0.009075
"127","wqbmh","Menauhant","WQB","Waquoit Bay","MA",41.5526,70.5485,2002,2022,2002,2022,12.9,47.86,30.9,8.8,101.2,8,2,619863,584774,587535,554156,562781,521805,563600,248,245,246,245,245,222,244,183,172,124,177,2.4,0.0139,0.007525,0.015
"128","wqbmp","Metoxit Point","WQB","Waquoit Bay","MA",41.5689,70.5216,2002,2022,2002,2022,16.6,46.315,29.9,8.4,102,8,1,447073,428956,428957,408319,417543,391089,398004,192,191,191,189,189,178,185,141,131,97,136,2.87,0.01395,0.0047,0.00865
"129","wqbsl","Sage Lot","WQB","Waquoit Bay","MA",41.5542,70.5084,2002,2022,2002,2022,17.8,45.32,29.2,7.8,96.8,7.9,1,406361,370081,370081,379778,383943,350016,378478,178,172,172,176,177,163,174,139,131,100,139,2.6,0.0155,0.003,0.006
